{
  "members": [
    {
      "name": "Frank Assu",
      "profile": "@frankassubc",
      "department": "Free Agent",
      "region": "Pacific",
      "city": "Comox",
      "province": "British Columbia",
      "latitude": 49.673,
      "longtitude": -124.928,
      "temp": "49.673,",
      "location": "49.673, -124.928"
    },
    {
      "name": "Stephane Duplessis",
      "profile": "@DupesSays",
      "department": "",
      "region": "Atlantic",
      "city": "Dieppe",
      "province": "New Brunswick",
      "latitude": 46.095,
      "longtitude": -64.748,
      "temp": "46.095,",
      "location": "46.095, -64.748"
    },
    {
      "name": "Kiran Khullar",
      "profile": "@cdnKiran",
      "department": "Free Agent",
      "region": "Prairie",
      "city": "Edmonton",
      "province": "Alberta",
      "latitude": 53.544,
      "longtitude": -113.49,
      "temp": "53.544,",
      "location": "53.544, -113.490"
    },
    {
      "name": "Guillaume Charest",
      "profile": "@GuillCharest",
      "department": "TBS",
      "region": "National Capitamembersl",
      "city": "Gatineau",
      "province": "Québec",
      "latitude": 45.476,
      "longtitude": -75.701,
      "temp": "45.476,",
      "location": "45.476, -75.701"
    },
    {
      "name": "John Price",
      "profile": "@priceyjd",
      "department": "",
      "region": "Atlantic",
      "city": "Halifax",
      "province": "Nova Scotia",
      "latitude": 44.648,
      "longtitude": -63.575,
      "temp": "44.648,",
      "location": "44.648, -63.575"
    },
    {
      "name": "Dan Russell",
      "profile": "@russellmania369",
      "department": "CRA",
      "region": "Ontario",
      "city": "Hamilton",
      "province": "Ontario",
      "latitude": 43.255,
      "longtitude": -79.871,
      "temp": "43.255,",
      "location": "43.255, -79.871"
    },
    {
      "name": "Jean-François Filion",
      "profile": "@Jyzaf",
      "department": "CRA",
      "region": "Québec",
      "city": "Montréal",
      "province": "Québec",
      "latitude": 45.501,
      "longtitude": -73.567,
      "temp": "45.501,",
      "location": "45.501, -73.567"
    },
    {
      "name": "Sarah Reda",
      "profile": "@_SarahReda",
      "department": "",
      "region": "Québec",
      "city": "Montréal",
      "province": "Québec",
      "latitude": 45.501,
      "longtitude": -73.567,
      "temp": "45.501,",
      "location": "45.501, -73.567"
    },
    {
      "name": "Rachelle Gervais",
      "profile": "@Rachelle2pt0",
      "department": "PSC",
      "region": "National Capital",
      "city": "Ottawa",
      "province": "Ontario",
      "latitude": 45.421,
      "longtitude": -75.697,
      "temp": "45.421,",
      "location": "45.421, -75.697"
    },
    {
      "name": "Walid Sharif",
      "profile": "@waliddotsharif",
      "department": "ESDC",
      "region": "National Capital",
      "city": "Ottawa",
      "province": "Ontario",
      "latitude": 45.422,
      "longtitude": -75.693,
      "temp": "45.422,",
      "location": "45.422, -75.693"
    },
    {
      "name": "Caroline Perron",
      "profile": "@perronca",
      "department": "SSC",
      "region": "National Capital",
      "city": "Ottawa",
      "province": "Ontario",
      "latitude": 45.423,
      "longtitude": -75.689,
      "temp": "45.423,",
      "location": "45.423, -75.689"
    },
    {
      "name": "Natalia Little",
      "profile": "@natalia_little_",
      "department": "TBS",
      "region": "National Capital",
      "city": "Ottawa",
      "province": "Ontario",
      "latitude": 45.424,
      "longtitude": -75.685,
      "temp": "45.424,",
      "location": "45.424, -75.685"
    },
    {
      "name": "Brenna Maher",
      "profile": "@brenna_613",
      "department": "GAC",
      "region": "National Capital",
      "city": "Ottawa",
      "province": "Ontario",
      "latitude": 45.425,
      "longtitude": -75.681,
      "temp": "45.425,",
      "location": "45.425, -75.681"
    },
    {
      "name": "Stephanie Bell",
      "profile": "@stephbell81",
      "department": "GAC",
      "region": "National Capital",
      "city": "Ottawa",
      "province": "Ontario",
      "latitude": 45.426,
      "longtitude": -75.677,
      "temp": "45.426,",
      "location": "45.426, -75.677"
    },
    {
      "name": "Eduardo Rivas",
      "profile": "@eddyelunico",
      "department": "PCO",
      "region": "National Capital",
      "city": "Ottawa",
      "province": "Ontario",
      "latitude": 45.421,
      "longtitude": -75.677,
      "temp": "45.421,",
      "location": "45.421, -75.677"
    },
    {
      "name": "Richard Smith",
      "profile": "@rlssmith7",
      "department": "",
      "region": "National Capital",
      "city": "Ottawa",
      "province": "Ontario",
      "latitude": 45.422,
      "longtitude": -75.681,
      "temp": "45.422,",
      "location": "45.422, -75.681"
    },
    {
      "name": "Jose Nieto-Morena",
      "profile": "@jan_ssh",
      "department": "",
      "region": "National Capital",
      "city": "Ottawa",
      "province": "Ontario",
      "latitude": 45.423,
      "longtitude": -75.685,
      "temp": "45.423,",
      "location": "45.423, -75.685"
    },
    {
      "name": "Vickie LeBlanc",
      "profile": "@vickieemilie",
      "department": "CRA",
      "region": "National Capital",
      "city": "Ottawa",
      "province": "Ontario",
      "latitude": 45.424,
      "longtitude": -75.689,
      "temp": "45.424,",
      "location": "45.424, -75.689"
    },
    {
      "name": "Rob Butler",
      "profile": "@robbutler",
      "department": "PCPO",
      "region": "National Capital",
      "city": "Ottawa",
      "province": "Ontario",
      "latitude": 45.425,
      "longtitude": -75.693,
      "temp": "45.425,",
      "location": "45.425, -75.693"
    },
    {
      "name": "Brian Double",
      "profile": "@speaka",
      "department": "Free Agent at PCPO",
      "region": "National Capital",
      "city": "Ottawa",
      "province": "Ontario",
      "latitude": 45.426,
      "longtitude": -75.697,
      "temp": "45.426,",
      "location": "45.426, -75.697"
    },
    {
      "name": "Greg Bamford",
      "profile": "@Drofmab",
      "department": "ESDC",
      "region": "Prairie",
      "city": "Regina",
      "province": "Saskatchewan",
      "latitude": 50.445,
      "longtitude": -104.618,
      "temp": "50.445,",
      "location": "50.445, -104.618"
    },
    {
      "name": "Victoria Todas",
      "profile": "@Victoria_T_CRA",
      "department": "CRA",
      "region": "Ontario",
      "city": "Toronto",
      "province": "Ontario",
      "latitude": 43.653,
      "longtitude": -79.383,
      "temp": "43.653,",
      "location": "43.653, -79.383"
    },
    {
      "name": "Mary Lestage",
      "profile": "@mary_lestage",
      "department": "Service Canada",
      "region": "Pacific",
      "city": "Vancouver",
      "province": "British Columbia",
      "latitude": 49.282,
      "longtitude": -123.12,
      "temp": "49.282,",
      "location": "49.282, -123.120"
    }
  ]
}